{"version": 0.6, "generator": "Overpass API 0.7.60.2 e4cf9f7a", "osm3s": {"timestamp_osm_base": "2023-04-30T01:53:53Z", "copyright": "The data included in this document is from www.openstreetmap.org. The data is made available under ODbL."}, "elements": [{"type": "node", "id": 287060351, "lat": 53.0814708, "lon": 8.9130622, "tags": {"amenity": "restaurant", "name": "Achterdiek"}}, {"type": "node", "id": 309483313, "lat": 53.1026744, "lon": 8.9117315, "tags": {"addr:city": "Bremen", "addr:country": "DE", "addr:housenumber": "165", "addr:postcode": "28355", "addr:street": "Oberneulander Landstra\u00dfe", "amenity": "restaurant", "contact:email": "info@hermanpost.de", "contact:phone": "+49 421 251737", "contact:website": "https://hermanpost.de/", "name": "Herman' Post", "opening_hours": "Tu-Fr 11:30-14:30,17:30-23:00; Sa,Su 11:30-23:00; Mo off", "wheelchair": "limited"}}, {"type": "node", "id": 360385725, "lat": 53.0901865, "lon": 8.9349041, "tags": {"addr:city": "Bremen", "addr:housenumber": "14", "addr:postcode": "28355", "addr:street": "Rockwinkeler Heerstra\u00dfe", "amenity": "restaurant", "contact:phone": "+49 421 69647070", "contact:website": "https://www.crossini-group.de/filialen/crossini-in-oberneuland", "diet:vegan": "yes", "diet:vegetarian": "yes", "indoor_seating": "yes", "name": "Crossini", "opening_hours": "Mo-Fr 07:00-22:00; Sa-Su 08:00-22:00; PH 10:00-22:00", "outdoor_seating": "yes", "takeaway": "yes", "wheelchair": "yes"}}, {"type": "node", "id": 676820600, "lat": 53.0806139, "lon": 8.931767, "tags": {"addr:city": "Bremen", "addr:housenumber": "91", "addr:postcode": "28355", "addr:street": "Vinnenweg", "amenity": "restaurant", "biergarten": "yes", "contact:phone": "+49 421 259868", "contact:website": "https://restauranteichengrund.eatbu.com/", "name": "Eichengrund"}}, {"type": "node", "id": 1295340120, "lat": 53.091287, "lon": 8.9370441}, {"type": "node", "id": 1295340146, "lat": 53.091096, "lon": 8.9370668}, {"type": "node", "id": 1295340160, "lat": 53.0911978, "lon": 8.9368964}, {"type": "node", "id": 2275933407, "lat": 53.0887769, "lon": 8.9020403, "tags": {"amenity": "restaurant", "contact:phone": "+49 421 33495954", "contact:website": "http://www.punto-e-pasta.de/", "cuisine": "italian", "delivery": "yes", "description": "Gourmet Bringdienst", "name": "Tasty Food Corner", "opening_hours": "Mo-Sa 17:30-22:00; Su 17:30-24:00; PH 17:30-22:00", "takeaway": "yes"}}, {"type": "node", "id": 2407735316, "lat": 53.0806043, "lon": 8.9278759, "tags": {"addr:city": "Bremen", "addr:country": "DE", "addr:housenumber": "25", "addr:postcode": "28355", "addr:street": "Heinrich-Baden-Weg", "amenity": "restaurant", "name": "BHC Club-Gastronomie", "website": "https://www.bremerhockeyclub.de/gastronomie/"}}, {"type": "node", "id": 2466678567, "lat": 53.0997773, "lon": 8.9028071}, {"type": "node", "id": 2466678568, "lat": 53.0998192, "lon": 8.9027407}, {"type": "node", "id": 2466678569, "lat": 53.0998365, "lon": 8.9029106}, {"type": "node", "id": 2466678570, "lat": 53.0998784, "lon": 8.9028442}, {"type": "node", "id": 2583014713, "lat": 53.0969145, "lon": 8.9281157}, {"type": "node", "id": 2583014715, "lat": 53.0970046, "lon": 8.9282356}, {"type": "node", "id": 2583014716, "lat": 53.0970167, "lon": 8.9279028}, {"type": "node", "id": 2583014717, "lat": 53.0971068, "lon": 8.9280227}, {"type": "node", "id": 3204748367, "lat": 53.0988809, "lon": 8.9040096}, {"type": "node", "id": 3204748371, "lat": 53.0989278, "lon": 8.9041562}, {"type": "node", "id": 3204748372, "lat": 53.0989579, "lon": 8.9039373}, {"type": "node", "id": 3204748375, "lat": 53.0990069, "lon": 8.9040819}, {"type": "node", "id": 3791795564, "lat": 53.0908415, "lon": 8.9367194, "tags": {"addr:city": "Bremen", "addr:housenumber": "42", "addr:postcode": "28355", "addr:street": "Oberneulander Landstra\u00dfe", "amenity": "restaurant", "contact:phone": "+49 421 68480138", "contact:website": "https://www.la-locanda-da-zionino.de/", "cuisine": "italian", "indoor_seating": "yes", "name": "La Locanda da Zionino", "opening_hours": "Mo-Sa 12:00-22:30; Su \"nach Vereinbarung\"", "outdoor_seating": "yes", "wheelchair": "yes"}}, {"type": "node", "id": 3793136541, "lat": 53.0911852, "lon": 8.9372146}, {"type": "node", "id": 6223126015, "lat": 53.0998705, "lon": 8.9028568, "tags": {"entrance": "main"}}, {"type": "node", "id": 6451558967, "lat": 53.0889049, "lon": 8.9019416, "tags": {"addr:city": "Bremen", "addr:housenumber": "2-4", "addr:postcode": "28355", "addr:street": "Stadtl\u00e4nderstra\u00dfe", "amenity": "restaurant", "contact:phone": "+49 421 32253188", "contact:website": "https://www.bambus-garten-bremen.de/", "cuisine": "chinese", "name": "Bambus Garten", "opening_hours": "Tu-Su 11:30-15:00,17:30-22:30", "outdoor_seating": "no", "start_date": "2019-05", "takeaway": "yes"}}, {"type": "node", "id": 7849565269, "lat": 53.082217, "lon": 8.9299522, "tags": {"amenity": "restaurant", "contact:phone": "+49 421 24366610", "contact:website": "https://www.gc-oberneuland.de/gastronomie/", "name": "Block", "opening_hours": "Mo-Su 10:00-22:00"}}, {"type": "node", "id": 9463892768, "lat": 53.0782208, "lon": 8.9408869, "tags": {"amenity": "restaurant", "contact:phone": "+49 421 426235", "contact:website": "https://www.vincents-bremen.de/", "diet:vegetarian": "yes", "indoor_seating": "yes", "name": "Vincent's", "opening_hours": "Tu-Fr 11:30-15:00,17:30-22:00; Sa 12:00-22:00; Su 10:00-22:00", "outdoor_seating": "yes", "takeaway": "yes", "wheelchair": "yes"}}, {"type": "node", "id": 10560236126, "lat": 53.098902, "lon": 8.9040799}, {"type": "node", "id": 10560236127, "lat": 53.0988543, "lon": 8.9041247}, {"type": "node", "id": 10560236128, "lat": 53.0988311, "lon": 8.9040563}, {"type": "way", "id": 114328343, "nodes": [1295340146, 1295340160, 1295340120, 3793136541, 1295340146], "tags": {"addr:city": "Bremen", "addr:housenumber": "43", "addr:postcode": "28355", "addr:street": "Oberneulander Landstra\u00dfe", "amenity": "restaurant", "building": "yes", "cuisine": "regional;pizza;burger;salad;fish", "diet:vegetarian": "yes", "indoor_seating": "yes", "name": "Oberneulander's", "opening_hours": "Mo,We-Su 12:00-24:00", "opening_hours:kitchen": "Mo,We-Su 12:00-22:00", "outdoor_seating": "yes", "phone": "+49 421 3648537", "smoking": "outside", "website": "https://oberneulanders.de/", "wheelchair": "no"}}, {"type": "way", "id": 238869615, "nodes": [2466678570, 6223126015, 2466678569, 2466678567, 2466678568, 2466678570], "tags": {"addr:city": "Bremen", "addr:housenumber": "176", "addr:postcode": "28355", "addr:street": "Rockwinkeler Heerstra\u00dfe", "amenity": "restaurant", "building": "yes", "cuisine": "italian;pizza", "delivery": "yes", "name": "Pizza Al Mare", "opening_hours": "Mo-Su 17:00-22:30", "outdoor_seating": "no", "phone": "+49 421 253300", "smoking": "outside", "takeaway": "only", "website": "http://pizza-al-mare.de/", "wheelchair": "limited"}}, {"type": "way", "id": 252210760, "nodes": [2583014717, 2583014715, 2583014713, 2583014716, 2583014717], "tags": {"addr:city": "Bremen", "addr:country": "DE", "addr:housenumber": "103", "addr:postcode": "28355", "addr:street": "Oberneulander Landstra\u00dfe", "amenity": "restaurant", "building": "yes", "cuisine": "french", "name": "La Cabane", "opening_hours": "Di-Sa 18:00-00:00", "phone": "+49 421 33111766", "website": "www.la-cabane.de"}}, {"type": "way", "id": 314429673, "nodes": [3204748367, 3204748372, 3204748375, 3204748371, 10560236126, 10560236127, 10560236128, 3204748367], "tags": {"addr:city": "Bremen", "addr:housenumber": "164", "addr:postcode": "28355", "addr:street": "Rockwinkeler Heerstra\u00dfe", "amenity": "restaurant", "building": "yes", "cuisine": "italian", "delivery": "no", "name": "Ave", "opening_hours": "Mo-Su 12:00+", "outdoor_seating": "yes", "phone": "+49 421 3365479", "smoking": "outside", "wheelchair": "yes"}}]}