{"version": 0.6, "generator": "Overpass API 0.7.60 f4c14d41", "osm3s": {"timestamp_osm_base": "2023-04-30T07:53:23Z", "copyright": "The data included in this document is from www.openstreetmap.org. The data is made available under ODbL."}, "elements": [{"type": "node", "id": 257704934, "lat": 52.5462582, "lon": 13.2119152, "tags": {"addr:city": "Berlin", "addr:country": "DE", "addr:housenumber": "7", "addr:postcode": "13585", "addr:street": "Frieda-Arnheim-Promenade", "addr:suburb": "Hakenfelde", "amenity": "restaurant", "contact:phone": "+49 30 54842743", "contact:website": "https://www.raymons.de/", "cuisine": "seafood", "name": "Raymons", "opening_hours": "Mo-Su 13:00-21:00", "outdoor_seating": "yes", "toilets:wheelchair": "yes", "wheelchair": "yes"}}, {"type": "node", "id": 259498218, "lat": 52.5855184, "lon": 13.2110076}, {"type": "node", "id": 259498219, "lat": 52.5853397, "lon": 13.210669}, {"type": "node", "id": 259498220, "lat": 52.5854607, "lon": 13.2104941}, {"type": "node", "id": 259498221, "lat": 52.5856086, "lon": 13.2108692}, {"type": "node", "id": 281153222, "lat": 52.5487612, "lon": 13.2218043}, {"type": "node", "id": 281153353, "lat": 52.5488403, "lon": 13.2216205}, {"type": "node", "id": 281153354, "lat": 52.5488415, "lon": 13.2217747}, {"type": "node", "id": 281153355, "lat": 52.5488288, "lon": 13.221838}, {"type": "node", "id": 281153383, "lat": 52.548775, "lon": 13.2217694}, {"type": "node", "id": 281153384, "lat": 52.5487601, "lon": 13.2217684}, {"type": "node", "id": 281153385, "lat": 52.5487586, "lon": 13.2216637}, {"type": "node", "id": 281153389, "lat": 52.5488279, "lon": 13.2217751}, {"type": "node", "id": 281153390, "lat": 52.5487627, "lon": 13.2216227}, {"type": "node", "id": 534328795, "lat": 52.5731039, "lon": 13.2234501, "tags": {"addr:city": "Berlin", "addr:country": "DE", "addr:housename": "F\u00e4hrhaus Spandau", "addr:housenumber": "31", "addr:postcode": "13587", "addr:street": "Aalemannufer", "addr:suburb": "Hakenfelde", "amenity": "restaurant", "contact:email": "info@himmel-und-havel.de", "contact:phone": "+49 30 89 78 84 66", "contact:website": "https://www.himmel-und-havel.de", "name": "Himmel und Havel", "opening_hours": "Mo-Su 11:00-22:00", "outdoor_seating": "yes", "wheelchair": "yes"}}, {"type": "node", "id": 674086089, "lat": 52.5482232, "lon": 13.2006536, "tags": {"addr:city": "Berlin", "addr:country": "DE", "addr:housenumber": "85", "addr:postcode": "13585", "addr:street": "Sch\u00f6nwalder Stra\u00dfe", "addr:suburb": "Spandau", "amenity": "restaurant", "name": "Bistro Class Berlin", "wheelchair": "no"}}, {"type": "node", "id": 674086101, "lat": 52.5537712, "lon": 13.1986604, "tags": {"amenity": "restaurant", "beer_garden": "yes", "cuisine": "german", "name": "Rosengarten", "toilets:wheelchair": "no", "wheelchair": "yes"}}, {"type": "node", "id": 674086102, "lat": 52.5531314, "lon": 13.1990761, "tags": {"access:covid19": "no", "addr:city": "Berlin", "addr:country": "DE", "addr:housenumber": "57A", "addr:postcode": "13585", "addr:street": "Sch\u00f6nwalder Stra\u00dfe", "addr:suburb": "Spandau", "amenity": "restaurant", "contact:website": "http://www.operasiciliana.de/", "cuisine": "italian", "delivery:covid19": "yes", "name": "L'Opera Siciliana", "opening_hours": "Mo-Fr 16:00-23:00; Sa, Su 12:00-23:00", "opening_hours:covid19": "open", "outdoor_seating": "yes", "takeaway:covid19": "yes", "wheelchair": "no"}}, {"type": "node", "id": 1122386612, "lat": 52.5678885, "lon": 13.2122855, "tags": {"addr:housenumber": "12-16", "addr:postcode": "13587", "addr:street": "Niederneuendorfer Allee", "amenity": "restaurant", "email": "info@villa-schuetzenhof.com", "name": "Sch\u00fctzenhof", "opening_hours": "We-Fr 11:00-23:00; Sa-Su 10:00-23:00", "operator": "Heidi Gastst\u00e4tten UG (haftungsbeschr\u00e4nkt)", "phone": "+49 30 3351586", "website": "http://www.villa-schuetzenhof.com", "wheelchair": "limited"}}, {"type": "node", "id": 1134478635, "lat": 52.5665785, "lon": 13.1933805}, {"type": "node", "id": 1134478639, "lat": 52.5665086, "lon": 13.1932202}, {"type": "node", "id": 1134478653, "lat": 52.5666447, "lon": 13.1930673}, {"type": "node", "id": 1134478696, "lat": 52.566709, "lon": 13.1932312}, {"type": "node", "id": 1135819846, "lat": 52.5472091, "lon": 13.2091794, "tags": {"amenity": "restaurant", "cuisine": "chinese"}}, {"type": "node", "id": 1135819847, "lat": 52.5466786, "lon": 13.2103163, "tags": {"amenity": "restaurant", "wheelchair": "limited"}}, {"type": "node", "id": 1190068065, "lat": 52.5487633, "lon": 13.2216621}, {"type": "node", "id": 1222099503, "lat": 52.5614452, "lon": 13.2087194, "tags": {"amenity": "restaurant", "cuisine": "italian", "name": "Il Castello", "wheelchair": "no"}}, {"type": "node", "id": 2432415505, "lat": 52.5578798, "lon": 13.2192443, "tags": {"amenity": "restaurant", "cuisine": "kebab", "name": "Imbiss an der Wasserstadt", "wheelchair": "yes"}}, {"type": "node", "id": 3056980346, "lat": 52.5708855, "lon": 13.1967296}, {"type": "node", "id": 3056980347, "lat": 52.5707747, "lon": 13.1965606}, {"type": "node", "id": 3056980348, "lat": 52.5706328, "lon": 13.1968181}, {"type": "node", "id": 3056980349, "lat": 52.5707453, "lon": 13.1969817}, {"type": "node", "id": 3574065293, "lat": 52.5568415, "lon": 13.2038895, "tags": {"amenity": "restaurant", "name": "Restaurant Luitpold", "wheelchair": "limited"}}, {"type": "node", "id": 3677305400, "lat": 52.5566345, "lon": 13.2073219, "tags": {"amenity": "restaurant", "cuisine": "italian", "name": "Sale \u00e9 Pepe", "wheelchair": "no"}}, {"type": "node", "id": 4111128198, "lat": 52.568494, "lon": 13.1953369, "tags": {"amenity": "restaurant"}}, {"type": "node", "id": 4298080019, "lat": 52.5708653, "lon": 13.1965691, "tags": {"addr:city": "Berlin", "addr:postcode": "13587", "addr:street": "Sch\u00f6nwalder Allee", "amenity": "restaurant", "capacity": "50", "cuisine": "regional", "description": "Essen f\u00fcr nicht Mitarbeiter des Ev. Johanesstift ist teurer.", "name": "Mitarbeiterrestaurant", "opening_hours": "Mo-Fr 11:30-14:00", "smoking": "outside", "takeaway": "no", "wheelchair": "yes"}}, {"type": "node", "id": 4344832159, "lat": 52.5707139, "lon": 13.1966709}, {"type": "node", "id": 4672158111, "lat": 52.5710359, "lon": 13.2187321}, {"type": "node", "id": 4672158112, "lat": 52.5710689, "lon": 13.2188799}, {"type": "node", "id": 4672158113, "lat": 52.5708928, "lon": 13.2189861}, {"type": "node", "id": 4672158114, "lat": 52.5708427, "lon": 13.2187626}, {"type": "node", "id": 4672158115, "lat": 52.5708966, "lon": 13.2187301}, {"type": "node", "id": 4672158116, "lat": 52.5709136, "lon": 13.2188058}, {"type": "node", "id": 4948138024, "lat": 52.5468824, "lon": 13.2095362, "tags": {"addr:housenumber": "25", "addr:street": "Neuendorfer Stra\u00dfe", "amenity": "restaurant", "cuisine": "german", "name": "Kochkunst", "opening_hours": "Tu-Sa 12:00-22:00; Su-Mo 12:00-01:00"}}, {"type": "node", "id": 5343288034, "lat": 52.5487771, "lon": 13.2218404}, {"type": "node", "id": 5343288035, "lat": 52.5487767, "lon": 13.221824}, {"type": "node", "id": 5343288036, "lat": 52.5487753, "lon": 13.2217808}, {"type": "node", "id": 5552088656, "lat": 52.5665435, "lon": 13.1933002}, {"type": "node", "id": 5552088657, "lat": 52.5666725, "lon": 13.1931382}, {"type": "node", "id": 6815946078, "lat": 52.5855268, "lon": 13.2106178}, {"type": "node", "id": 6815946079, "lat": 52.5854748, "lon": 13.210693}, {"type": "node", "id": 6815946080, "lat": 52.5855371, "lon": 13.2108112}, {"type": "node", "id": 6815946081, "lat": 52.5855696, "lon": 13.2107642}, {"type": "node", "id": 9830866325, "lat": 52.5854203, "lon": 13.2108684}, {"type": "node", "id": 9830866326, "lat": 52.5854372, "lon": 13.2109}, {"type": "node", "id": 9830866327, "lat": 52.5854506, "lon": 13.2108806}, {"type": "node", "id": 9830866328, "lat": 52.585435, "lon": 13.2108473}, {"type": "node", "id": 9830866329, "lat": 52.5855991, "lon": 13.2108195}, {"type": "node", "id": 9830866330, "lat": 52.5855895, "lon": 13.2108334}, {"type": "node", "id": 9830866331, "lat": 52.5855878, "lon": 13.2109071}, {"type": "node", "id": 9830866332, "lat": 52.5855855, "lon": 13.2109027}, {"type": "node", "id": 9830866333, "lat": 52.5855382, "lon": 13.2107706}, {"type": "node", "id": 9830866334, "lat": 52.5855243, "lon": 13.2107446}, {"type": "node", "id": 9830866335, "lat": 52.5855119, "lon": 13.2107625}, {"type": "node", "id": 9830866336, "lat": 52.5855253, "lon": 13.2107892}, {"type": "way", "id": 23940759, "nodes": [259498218, 9830866327, 9830866326, 9830866325, 9830866328, 259498219, 259498220, 6815946078, 6815946079, 9830866335, 9830866334, 9830866333, 9830866336, 6815946080, 6815946081, 9830866329, 9830866330, 259498221, 9830866332, 9830866331, 259498218], "tags": {"addr:city": "Berlin", "addr:country": "DE", "addr:housenumber": "80", "addr:postcode": "13587", "addr:street": "Niederneuendorfer Allee", "addr:suburb": "Hakenfelde", "amenity": "restaurant", "building": "yes", "contact:email": "info@jagdhaus-spandau.de", "contact:fax": "+49 30 33604495", "contact:phone": "+49 30 33604494", "contact:website": "https://www.jagdhaus-spandau.de/", "cuisine": "bavarian", "name": "Jagdhaus", "opening_hours": "PH,Mo-Su 10:00-18:00", "operator": "Jagdhaus Spandau Gastronomiebetriebs GmbH", "outdoor_seating": "yes", "wheelchair": "yes"}}, {"type": "way", "id": 25776211, "nodes": [281153353, 281153390, 1190068065, 281153385, 281153384, 281153383, 5343288036, 281153222, 5343288035, 5343288034, 281153355, 281153389, 281153354, 281153353], "tags": {"addr:city": "Berlin", "addr:country": "DE", "addr:housenumber": "22", "addr:postcode": "13585", "addr:street": "Eiswerderstra\u00dfe", "addr:suburb": "Hakenfelde", "amenity": "restaurant", "building": "yes", "cuisine": "international", "email": "stilbruch-restaurant@t-online.de", "fax": "+49 30 33 50 55 82", "heritage": "4", "heritage:operator": "lda", "lda:criteria": "Baudenkmal", "name": "Restaurant Stilbruch", "opening_hours": "We-Su 16:00+", "opening_hours:url": "https://stilbruch-restaurant.de/speisen-und-weinkarte/", "payment:cash": "yes", "payment:girocard": "yes", "payment:others": "no", "phone": "+49 30 33505580", "ref:lda": "09080559", "reservation": "yes", "start_date": "1890", "website": "http://www.stilbruch-restaurant.de", "website:menu": "http://stilbruch-restaurant.de/speisen-und-weinkarte/", "wheelchair": "limited", "wheelchair:description": "Keine Behindertentoilette!"}}, {"type": "way", "id": 98041056, "nodes": [1134478653, 5552088657, 1134478696, 1134478635, 5552088656, 1134478639, 1134478653], "tags": {"addr:city": "Berlin", "addr:country": "DE", "addr:housenumber": "22", "addr:postcode": "13587", "addr:street": "Sch\u00f6nwalder Allee", "addr:suburb": "Hakenfelde", "amenity": "restaurant", "building": "yes", "email": "dteterra@hotmail.com", "name": "Heidis Landgasthaus", "opening_hours": "We-Su 12:00-20:00", "phone": "+49 30 3366127", "toilets:wheelchair": "yes", "website": "https://www.heidis-landgasthaus.de/", "wheelchair": "yes"}}, {"type": "way", "id": 301619923, "nodes": [3056980346, 3056980347, 4344832159, 3056980348, 3056980349, 3056980346], "tags": {"addr:city": "Berlin", "addr:housenumber": "26/40", "addr:postcode": "13587", "addr:street": "Sch\u00f6nwalder Allee", "amenity": "restaurant", "building": "house", "name": "Restaurant Kastaniengarten", "wheelchair": "yes"}}, {"type": "way", "id": 473042341, "nodes": [4672158111, 4672158112, 4672158113, 4672158114, 4672158115, 4672158116, 4672158111], "tags": {"amenity": "restaurant", "building": "yes", "toilets:wheelchair": "no", "wheelchair": "limited"}}]}